{"farms": [{"farm_name": "Greifswalderstrasse", "organization": "BER [Edeka]", "category": "STORE", "line_1": "Greifswalder Str. 86", "line_2": null, "line_3": null, "city": "Berlin", "postcode": "10409", "country": "Germany", "coordinates": {"lat": 52.541309549237894, "lng": 13.439832235431481}}, {"farm_name": "HAN_Weserstrasse 73 (Bad Oeynhausen)", "organization": "HAN [Wez]", "category": "STORE", "line_1": "Weserstra&#223;e 73", "line_2": null, "line_3": null, "city": "Bad Oeynhausen", "postcode": "32547", "country": "Germany"}, {"farm_name": "Rudi Dutschke Str. [Tim Raue]", "organization": "Tim Raue", "category": "RESTAURANT", "line_1": "Rudi-Dutschke-Strasse 26", "line_2": null, "line_3": null, "city": "Berlin", "postcode": "10969", "country": "Germany", "coordinates": {"lat": 52.50701636787241, "lng": 13.391397735612998}}, {"farm_name": "Chausseestrasse", "organization": "BER [Edeka]", "category": "STORE", "line_1": "Chaussee Strasse 43", "line_2": null, "line_3": null, "city": "Berlin", "postcode": "10155", "country": "Germany", "coordinates": {"lat": 52.53467694449381, "lng": 13.378117647987239}}, {"farm_name": "Goltzstrasse", "organization": "BER [Edeka]", "category": "STORE", "line_1": "Goltzstrasse 1", "line_2": null, "line_3": null, "city": "Berlin", "postcode": "12307", "country": "Germany", "coordinates": {"lat": 52.38730155, "lng": 13.4085319582864}}, {"farm_name": "Heidelbergerstrasse", "organization": "BER [Edeka]", "category": "STORE", "line_1": "Heidelberger Str. 90", "line_2": null, "line_3": null, "city": "Berlin", "postcode": " 12435", "country": "Germany", "coordinates": {"lat": 52.48890433403949, "lng": 13.447812235671478}}, {"farm_name": "HAN_Unter der Schalksburg 3 (Porta Westfalica)", "organization": "HAN [Wez]", "category": "STORE", "line_1": "Unter der Schalksburg 3", "line_2": null, "line_3": null, "city": "Porta Westfalica", "postcode": "32457", "country": "Germany", "coordinates": {"lat": 52.2397611, "lng": 8.9197954}}, {"farm_name": "FRA_Ferdinand-Happ-Stra\u00dfe 59 (Frankfurt) ", "organization": "FRA [Edeka]", "category": "STORE", "line_1": "Ferdinand-Happ-Stra&#223;e 59", "line_2": null, "line_3": null, "city": "Frankfurt am Main", "postcode": "60314", "country": "Germany"}, {"farm_name": "Hansastrasse 236", "organization": "BER [Edeka]", "category": "STORE", "line_1": "Hansastrasse 236", "line_2": null, "line_3": null, "city": "Berlin", "postcode": "13051", "country": "Germany", "coordinates": {"lat": 52.5605947, "lng": 13.4990546146679}}, {"farm_name": "HAN_Chemnitzer Stra\u00dfe 2 (Ronnenberg)", "organization": "HAN [Edeka]", "category": "STORE", "line_1": "Chemnitzer Strasse 2", "line_2": null, "line_3": null, "city": "Ronnenberg", "postcode": "30952", "country": "Germany", "coordinates": {"lat": 52.344945, "lng": 9.6719985}}, {"farm_name": "Kaiser-Wilhelm-Strasse [PoS only]", "organization": "BER [Edeka] ", "category": "STORE", "line_1": "Kaiser Wilhelm Str. 64", "line_2": null, "line_3": null, "city": "Berlin", "postcode": "12247", "country": "Germany"}, {"farm_name": "PAR_Nanterre [Metro]_rowA", "organization": "PAR [Metro]", "category": "DISTRIBUTION", "line_1": "5 Rue des Grands Pres", "line_2": null, "line_3": null, "city": "Nanterre", "postcode": "92000", "country": "France", "coordinates": {"lat": 48.910535, "lng": 2.2141151}}, {"farm_name": "Jessnerstrasse", "organization": "BER [Edeka]", "category": "STORE", "line_1": "Jessnerstr. 47-55", "line_2": null, "line_3": null, "city": "Berlin", "postcode": "10247", "country": "Germany", "coordinates": {"lat": 52.509988416807346, "lng": 13.470913484057178}}, {"farm_name": "Johannisthaler Chaussee", "organization": "BER [Edeka]", "category": "STORE", "line_1": "Johannisthaler Chaussee 365", "line_2": null, "line_3": null, "city": "Berlin", "postcode": "12351", "country": "Germany", "coordinates": {"lat": 52.426673067393665, "lng": 13.448653425670216}}, {"farm_name": "Potsdamer Chaussee", "organization": "BER [Edeka]", "category": "STORE", "line_1": "Potsdamer Chaussee 80", "line_2": null, "line_3": null, "city": "Berlin", "postcode": "14129 ", "country": "Germany", "coordinates": {"lat": 52.426893998484445, "lng": 13.21607005596951}}, {"farm_name": "Potsdamerstrasse", "organization": "BER [Edeka]", "category": "STORE", "line_1": "Potsdamer Str. 60", "line_2": null, "line_3": null, "city": " Ludwigsfelde", "postcode": "14974", "country": "Germany", "coordinates": {"lat": 52.30268888579732, "lng": 13.257186588876863}}, {"farm_name": "Raoul-Wallenberg strasse", "organization": "BER [Edeka]", "category": "STORE", "line_1": "Raoul-Wallenberg-Strasse 18", "line_2": null, "line_3": null, "city": "Berlin", "postcode": "12679", "country": "Germany", "coordinates": {"lat": 52.54900055589505, "lng": 13.55260383076714}}, {"farm_name": "Schnellerstrasse", "organization": "BER [Edeka]", "category": "STORE", "line_1": "Schnellerstra&#223;e 131", "line_2": null, "line_3": null, "city": "Berlin", "postcode": "12439", "country": "Germany", "coordinates": {"lat": 52.458595, "lng": 13.509653}}, {"farm_name": "Stephanstrasse", "organization": "BER [Edeka]", "category": "STORE", "line_1": "Stephanstrasse 37-43", "line_2": null, "line_3": null, "city": "Berlin", "postcode": "10559", "country": "Germany", "coordinates": {"lat": 52.531899757802194, "lng": 13.34479848589038}}, {"farm_name": "An der Ostbahn [Metro]", "organization": "BER [Metro]", "category": "STORE", "line_1": "An der Ostbahn 5", "line_2": null, "line_3": null, "city": "Berlin", "postcode": "10243", "country": "Germany", "coordinates": {"lat": 52.509418183310174, "lng": 13.44347202469541}}, {"farm_name": "STU_Raiffeisenstra\u00dfe 22 (Bonlanden)", "organization": "STU [Edeka]", "category": "STORE", "line_1": "Raiffeisenstrasse 22", "line_2": null, "line_3": null, "city": "Bonlanden", "postcode": "70794", "country": "Germany"}, {"farm_name": "Brandenburger Str. (Potsdam)", "organization": "BER [Edeka]", "category": "STORE", "line_1": "Brandenburgerstrasse", "line_2": null, "line_3": null, "city": "Potsdam", "postcode": "14467", "country": "Germany", "coordinates": {"lat": 52.4007833, "lng": 13.0577579}}, {"farm_name": "Wiesbadenerstr. [PoS only]", "organization": "BER [Edeka] ", "category": "STORE", "line_1": "Wiesbadenerstr. 53", "line_2": null, "line_3": null, "city": "Berlin", "postcode": "14197", "country": "Germany", "coordinates": {"lat": 52.4731053, "lng": 13.3021706}}, {"farm_name": "GoodBank", "organization": "BER [Others]", "category": "RESTAURANT", "line_1": "Rosa-Luxemburg-Strasse 5", "line_2": null, "line_3": null, "city": "Berlin", "postcode": "10178", "country": "Germany", "coordinates": {"lat": 52.52425771249793, "lng": 13.409594218146111}}, {"farm_name": "Berliner Allee [PoS only]", "organization": "BER [Edeka] ", "category": "STORE", "line_1": "Berliner Allee 100", "line_2": null, "line_3": null, "city": "Berlin", "postcode": "13088", "country": "Germany", "coordinates": {"lat": 52.5497931, "lng": 13.4588764}}, {"farm_name": "Hasenheide 57 [PoS only]", "organization": "BER [Edeka] ", "category": "STORE", "line_1": "Hasenheide 57", "line_2": null, "line_3": null, "city": "Berlin", "postcode": "10967", "country": "Germany", "coordinates": {"lat": 52.4891737, "lng": 13.4091095}}, {"farm_name": "Markstrasse [PoS only]", "organization": "BER [Edeka] ", "category": "STORE", "line_1": "Mark Str. 32", "line_2": null, "line_3": null, "city": "Berlin", "postcode": "13409", "country": "Germany"}, {"farm_name": "Mainzerstrasse [PoS only]", "organization": "BER [Edeka] ", "category": "STORE", "line_1": "Mainzerstr. 13", "line_2": null, "line_3": null, "city": "Berlin", "postcode": "10715", "country": "Germany", "coordinates": {"lat": 52.4797483, "lng": 13.3267804}}, {"farm_name": "Siemensstrasse [PoS only]", "organization": "BER [Edeka] ", "category": "STORE", "line_1": "Siemensstr. 21", "line_2": null, "line_3": null, "city": "Berlin", "postcode": "12247", "country": "Germany", "coordinates": {"lat": 52.53411655, "lng": 13.33959345}}, {"farm_name": "Marlene-Dietrich-Allee (Potsdam)", "organization": "BER [Edeka]", "category": "STORE", "line_1": "Marlene-Dietrich-Allee", "line_2": null, "line_3": null, "city": "Potsdam", "postcode": "14482", "country": "Germany", "coordinates": {"lat": 52.3905789, "lng": 13.1188737}}, {"farm_name": "STU_Mittlere Uferstra\u00dfe 5 (Schorndorf)", "organization": "STU [Edeka]", "category": "STORE", "line_1": "Mittlere Uferstra&#223;e 5", "line_2": null, "line_3": null, "city": "Schorndorf", "postcode": "73614", "country": "Germany"}, {"farm_name": "Andreasstra\u00dfe 59", "organization": "BER [Edeka]", "category": "STORE", "line_1": "Andreasstr. 59", "line_2": null, "line_3": null, "city": "Berlin", "postcode": "10243 ", "country": "Germany", "coordinates": {"lat": 52.51487145, "lng": 13.4312623397386}}, {"farm_name": "HAN_Goebenstra\u00dfe 31 (Herford)", "organization": "HAN [Edeka]", "category": "STORE", "line_1": "Goebenstrasse ", "line_2": null, "line_3": null, "city": "Herford", "postcode": "32051", "country": "Germany", "coordinates": {"lat": 52.1236757, "lng": 8.6693132}}, {"farm_name": "ZUR_Pfingstweidstrasse 101 (Zuerich)", "organization": "ZUR [Migros]", "category": "STORE", "line_1": "Pfingstweidstrasse 101", "line_2": null, "line_3": null, "city": "Zuerich", "postcode": "8005", "country": "Switzerland", "coordinates": {"lat": 47.3898235, "lng": 8.5083708}}, {"farm_name": "Koernerstrasse [PoS only]", "organization": "BER [Edeka] ", "category": "STORE", "line_1": "Koerner Str. 30", "line_2": null, "line_3": null, "city": "Berlin", "postcode": "12157", "country": "Germany"}, {"farm_name": "HAN_L\u00fcbbecker Str. 83 (Minden)", "organization": "HAN [Wez]", "category": "STORE", "line_1": "Luebbecker Strasse 83", "line_2": null, "line_3": null, "city": "Minden", "postcode": "32429", "country": "Germany", "coordinates": {"lat": 52.27254145, "lng": 8.88519153874793}}, {"farm_name": "HAN_Hannoversche Stra\u00dfe 44 (Burgwedel) ", "organization": "HAN [Edeka]", "category": "STORE", "line_1": "Hannoversche Strasse 44", "line_2": null, "line_3": null, "city": " Burgwedel", "postcode": "30938", "country": "Germany", "coordinates": {"lat": 52.4851362, "lng": 9.8576502}}, {"farm_name": "Clayallee", "organization": "BER [Edeka]", "category": "STORE", "line_1": "Clayallee 171-177", "line_2": null, "line_3": null, "city": "Berlin", "postcode": "10999", "country": "Germany", "coordinates": {"lat": 52.452136411007615, "lng": 13.270613692067997}}, {"farm_name": "B\u00f6lschestr.", "organization": "BER [Edeka]", "category": "STORE", "line_1": "B&#246;lschestra&#223;e 36", "line_2": null, "line_3": null, "city": "Berlin", "postcode": "12587", "country": "Germany", "coordinates": {"lat": 52.451493302717125, "lng": 13.625400027907034}}, {"farm_name": "Grenzallee", "organization": "BER [Edeka]", "category": "STORE", "line_1": "Grenzallee 4-6", "line_2": null, "line_3": null, "city": "Berlin", "postcode": "12057", "country": "Germany", "coordinates": {"lat": 52.470287832885106, "lng": 13.461587294745215}}, {"farm_name": "Nollendorfplatz", "organization": "BER [Edeka]", "category": "STORE", "line_1": "Nollendorfplatz 8-9", "line_2": null, "line_3": null, "city": "Berlin", "postcode": "10777", "country": "Germany", "coordinates": {"lat": 52.499050707284084, "lng": 13.354618216085527}}, {"farm_name": "Herrfurthplatz [PoS only]", "organization": "BER [Edeka] ", "category": "STORE", "line_1": "Herrfurthplatz 12", "line_2": null, "line_3": null, "city": "Berlin", "postcode": "12049", "country": "Germany", "coordinates": {"lat": 52.4769707, "lng": 13.4229956}}, {"farm_name": "Knesebeckstrasse", "organization": "BER [Edeka]", "category": "STORE", "line_1": "Knesebeckstra&#223;e 56-58", "line_2": null, "line_3": null, "city": "Berlin ", "postcode": "10719", "country": "Germany", "coordinates": {"lat": 52.500633530611054, "lng": 13.322099503572588}}, {"farm_name": "STU_Mauerstra\u00dfe 78-90 (Heilbronn-Sontheim)", "organization": "STU [Edeka]", "category": "STORE", "line_1": "Mauerstrasse 78-90", "line_2": null, "line_3": null, "city": "Heilbronn-Sontheim", "postcode": "74081", "country": "Germany", "coordinates": {"lat": 49.1237598, "lng": 9.2015041}}, {"farm_name": "Terracruda Restaurant", "organization": "BER [Others]", "category": "RESTAURANT", "line_1": "Grimm Str. 1", "line_2": null, "line_3": null, "city": "Berlin", "postcode": "10967", "country": "Germany"}, {"farm_name": "ZUR_Im Zentrum (Regensdorf)", "organization": "ZUR [Migros]", "category": "STORE", "line_1": "Im Zentrum 1", "line_2": null, "line_3": null, "city": "Regensdorf", "postcode": "8105", "country": "Switzerland", "coordinates": {"lat": 47.4309863, "lng": 8.4672408}}, {"farm_name": "HAN_Ringstrasse 74 (Minden)", "organization": "HAN [Wez]", "category": "STORE", "line_1": "Ringstrasse 74", "line_2": null, "line_3": null, "city": "Minden", "postcode": "32427", "country": "Germany", "coordinates": {"lat": 52.2919598, "lng": 8.902781}}, {"farm_name": "Blankenburger Str.", "organization": "BER [Edeka]", "category": "STORE", "line_1": "Blankenburger Str. 79-81", "line_2": null, "line_3": null, "city": "Berlin", "postcode": "13156", "country": "Germany", "coordinates": {"lat": 52.58469234143581, "lng": 13.416892605775871}}, {"farm_name": "Sprengelstrasse [PoS only]", "organization": "BER [Edeka] ", "category": "STORE", "line_1": "Sprengel Str. 37", "line_2": null, "line_3": null, "city": "Berlin", "postcode": "13353", "country": "Germany"}, {"farm_name": "Kantstrasse [PoS only]", "organization": "BER [Edeka] ", "category": "STORE", "line_1": "Kantstr. 24", "line_2": null, "line_3": null, "city": "Berlin", "postcode": "10623", "country": "Germany", "coordinates": {"lat": 52.5061041, "lng": 13.3203142}}, {"farm_name": "Osnabrueckerstrasse [PoS only]", "organization": "BER [Edeka] ", "category": "STORE", "line_1": "Osnabruecker Str. 27", "line_2": null, "line_3": null, "city": "Berlin", "postcode": "10589", "country": "Germany"}, {"farm_name": "ZUR_Zuerichstrasse 20 (Uster)", "organization": "ZUR [Migros]", "category": "STORE", "line_1": "Zuerichstrasse 20", "line_2": null, "line_3": null, "city": "Uster", "postcode": "8610", "country": "Switzerland", "coordinates": {"lat": 47.3675545, "lng": 8.6966133}}, {"farm_name": "ZUR_Limmastrasse 152 (Zuerich)", "organization": "ZUR [Migros]", "category": "STORE", "line_1": "Limmastrasse 152", "line_2": null, "line_3": null, "city": "Zuerich", "postcode": "8005", "country": "Switzerland", "coordinates": {"lat": 47.3854496, "lng": 8.530196125}}, {"farm_name": "ZUR_Loewenstrasse 31-35 (Zuerich) ", "organization": "ZUR [Migros]", "category": "STORE", "line_1": "Loewenstrasse 31-35", "line_2": null, "line_3": null, "city": "Zuerich", "postcode": "8001", "country": "Switzerland", "coordinates": {"lat": 47.3752549, "lng": 8.5361073}}, {"farm_name": "ZUR_Flughofstrasse 3 (Kloten) ", "organization": "ZUR [Migros]", "category": "STORE", "line_1": "Flughofstrasse 3", "line_2": null, "line_3": null, "city": "Kloten", "postcode": "8058", "country": "Switzerland", "coordinates": {"lat": 47.4406206, "lng": 8.5664447}}, {"farm_name": "HAM_Wilhelm-Strau\u00df-Weg 4 (Hamburg)", "organization": "HAM [Edeka]", "category": "STORE", "line_1": "Wilhelm-Strau\u00df-Weg 4", "line_2": null, "line_3": null, "city": "Hamburg", "postcode": "21109", "country": "Germany", "coordinates": {"lat": 53.4987604, "lng": 10.0098289}}, {"farm_name": "DUS_Voerder Stra\u00dfe 2 (Ennepetal)", "organization": "DUS [Edeka]", "category": "STORE", "line_1": "Voerder Stra\u00dfe 2", "line_2": null, "line_3": null, "city": "Ennepetal", "postcode": "58256", "country": "Germany", "coordinates": {"lat": 51.301127, "lng": 7.3451086}}, {"farm_name": "HAN_Planetenring 25-27 (Garbsen)", "organization": "HAN [Edeka]", "category": "STORE", "line_1": "Planetenring 25-27", "line_2": null, "line_3": null, "city": "Garbsen", "postcode": "30823", "country": "Germany", "coordinates": {"lat": 52.4197867, "lng": 9.5955139}}, {"farm_name": "FRA_Karlsbader Platz 2-28 (Wiesbaden)", "organization": "FRA [Edeka]", "category": "STORE", "line_1": "Karlsbader Platz 2-28", "line_2": null, "line_3": null, "city": "Wiesbaden", "postcode": "65197", "country": "Germany", "coordinates": {"lat": 50.0743899, "lng": 8.2238025}}, {"farm_name": "HAN_Albert-Schweitzer-Stra\u00dfe 13 (L\u00f6hne)", "organization": "HAN [Edeka]", "category": "STORE", "line_1": "Albert-Schweitzer-Strasse 13", "line_2": null, "line_3": null, "city": "Loehne", "postcode": "32584", "country": "Germany", "coordinates": {"lat": 52.2069477, "lng": 8.7198409}}, {"farm_name": "STU_Bahnhofstra\u00dfe 44 (Ellhofen) ", "organization": "STU [Edeka]", "category": "STORE", "line_1": "Bahnhofstrasse 44", "line_2": null, "line_3": null, "city": "Ellhofen", "postcode": "74248", "country": "Germany", "coordinates": {"lat": 48.7042687, "lng": 9.0306526}}, {"farm_name": "STU_Stuttgarterstr. 46-48 (Stuttgart)", "organization": "STU [Edeka]", "category": "STORE", "line_1": "Stuttgarter Strasse 46-48", "line_2": null, "line_3": null, "city": "Stuttgart", "postcode": "70469", "country": "Germany", "coordinates": {"lat": 48.8107696, "lng": 9.1641616}}, {"farm_name": "DUS_Wolfsbankring 34 (Essen)", "organization": "DUS [Edeka]", "category": "STORE", "line_1": "Wolfsbankring 34", "line_2": null, "line_3": null, "city": "Essen", "postcode": "45355", "country": "Germany", "coordinates": {"lat": 51.4708511, "lng": 6.95743870612095}}, {"farm_name": "X_19.01.21_STU_Hohenheimer Strasse 7 (Leinfelden)", "organization": "STU [Edeka]", "category": "STORE", "line_1": "Hohenheimer Strasse 7", "line_2": null, "line_3": null, "city": "Leinfelden", "postcode": "70771", "country": "Germany", "coordinates": {"lat": 48.704027, "lng": 9.1440599}}, {"farm_name": "STU_Leonberger Stra\u00dfe 98 (Leonberg)", "organization": "STU [Edeka]", "category": "STORE", "line_1": "Leonberger Strasse 98", "line_2": null, "line_3": null, "city": "Leonberg", "postcode": "71229", "country": "Germany", "coordinates": {"lat": 48.7952486, "lng": 9.01127211239463}}, {"farm_name": "STU_Wiesenstra\u00dfe 35 (Schorndorf)", "organization": "STU [Edeka]", "category": "STORE", "line_1": "Wiesenstra\u00dfe 35", "line_2": null, "line_3": null, "city": "Schorndorf", "postcode": "73614", "country": "Germany", "coordinates": {"lat": 48.817747, "lng": 9.53882111754508}}, {"farm_name": "DUS_Dorstener Stra\u00dfe 511 (Oberhausen)", "organization": "DUS [Edeka]", "category": "STORE", "line_1": "Dorstener Stra\u00dfe 511", "line_2": null, "line_3": null, "city": "Oberhausen", "postcode": "46119 ", "country": "Germany", "coordinates": {"lat": 51.53515375, "lng": 6.88002031480218}}, {"farm_name": "HAN_Hagenburger Stra\u00dfe 20 (Wunstorf)", "organization": "HAN [Edeka]", "category": "STORE", "line_1": "Hagenburger Strasse 20", "line_2": null, "line_3": null, "city": "Wunstorf", "postcode": "31515", "country": "Germany", "coordinates": {"lat": 52.4305579, "lng": 9.4184162}}, {"farm_name": "HAN_B\u00f6cklerstra\u00dfe 6-8 (Hameln)", "organization": "HAN [Edeka]", "category": "STORE", "line_1": "B\u00f6cklerstrasse 6-8", "line_2": null, "line_3": null, "city": "Hameln", "postcode": "31789", "country": "Germany", "coordinates": {"lat": 52.0824289, "lng": 9.341751}}, {"farm_name": "DUS_Altendorferstrasse 230 (Essen)", "organization": "DUS [Edeka]", "category": "STORE", "line_1": "Altendorferstrasse 230", "line_2": null, "line_3": null, "city": "Essen", "postcode": "45355", "country": "Germany", "coordinates": {"lat": 51.4600541, "lng": 6.9836113}}, {"farm_name": "DUS_Industriestra\u00dfe 22 (Oer-Erkenschwick)", "organization": "DUS [Edeka]", "category": "STORE", "line_1": "Industriestra\u00dfe 22", "line_2": null, "line_3": null, "city": "Oer-Erkenschwick", "postcode": "45739", "country": "Germany", "coordinates": {"lat": 51.63904555, "lng": 7.27779376053665}}, {"farm_name": "ZUR_Feldstrasse 85 (Buelach) ", "organization": "ZUR [Migros]", "category": "STORE", "line_1": "Feldstrasse 85", "line_2": null, "line_3": null, "city": "Buelach", "postcode": "8180", "country": "Switzerland", "coordinates": {"lat": 47.5102979, "lng": 8.5407826}}, {"farm_name": "FRA_Chinonplatz 6 (Hofheim Am Taunus)", "organization": "FRA [Edeka]", "category": "STORE", "line_1": "Chinonplatz 6", "line_2": null, "line_3": null, "city": "Hofheim Am Taunus", "postcode": "65719", "country": "Germany", "coordinates": {"lat": 50.0857232, "lng": 8.448295}}, {"farm_name": "STU_Sersheimerstra\u00dfe 44 (Sachsenheim)", "organization": "STU [Edeka]", "category": "STORE", "line_1": "Sersheimerstrasse 44", "line_2": null, "line_3": null, "city": "Sachsenheim", "postcode": "74343", "country": "Germany", "coordinates": {"lat": 48.9639489, "lng": 9.0551922}}, {"farm_name": "HAN_Konrad-Adenauer-Stra\u00dfe 33 (Rinteln)", "organization": "HAN [Edeka]", "category": "STORE", "line_1": "Konrad-Adenauer-Strasse 33", "line_2": null, "line_3": null, "city": "Rinteln", "postcode": "31737", "country": "Germany", "coordinates": {"lat": 52.1961907, "lng": 9.0867835}}, {"farm_name": "HAN_Wilhelmstra\u00dfe 10-28 (B\u00fcnde)", "organization": "HAN [Edeka]", "category": "STORE", "line_1": "Wilhelmstra\u00dfe 10-28", "line_2": null, "line_3": null, "city": "Buende", "postcode": "32257", "country": "Germany", "coordinates": {"lat": 52.2008753, "lng": 8.57122435387091}}, {"farm_name": "HAN_K\u00f6nigstra\u00dfe 162 (Minden)", "organization": "HAN [Edeka]", "category": "STORE", "line_1": "Koenigstrasse 162", "line_2": null, "line_3": null, "city": "Minden", "postcode": "32427", "country": "Germany", "coordinates": {"lat": 52.2922466, "lng": 8.8861235}}, {"farm_name": "DUS_Alleestra\u00dfe 38-40 (Bochum)", "organization": "DUS [Edeka]", "category": "STORE", "line_1": "Alleestrasse 38-40", "line_2": null, "line_3": null, "city": "Bochum", "postcode": "44793", "country": "Germany", "coordinates": {"lat": 51.4812546, "lng": 7.2095224}}, {"farm_name": "STU_Imanuel-Maier-Stra\u00dfe 2 (K\u00f6ngen)", "organization": "STU [Edeka]", "category": "STORE", "line_1": "Imanuel-Maier-Strasse 2", "line_2": null, "line_3": null, "city": "Koengen", "postcode": "73257", "country": "Germany"}, {"farm_name": "HAN_Deichkamp 13 (Herford)", "organization": "HAN [Edeka]", "category": "STORE", "line_1": "Deichkamp 13", "line_2": null, "line_3": null, "city": "Herford", "postcode": "32051", "country": "Germany", "coordinates": {"lat": 52.11256605, "lng": 8.65800735569117}}, {"farm_name": "STU_Wolfgang-Brumme-Allee 27 (B\u00f6blingen)", "organization": "STU [Edeka]", "category": "STORE", "line_1": "Wolfgang-Brumme-Allee 27", "line_2": null, "line_3": null, "city": "Boeblingen", "postcode": "71034", "country": "Germany", "coordinates": {"lat": 48.6876456, "lng": 9.0062726}}, {"farm_name": "STU_Weilstra\u00dfe 227 (Esslingen am Neckar) ", "organization": "STU [Edeka]", "category": "STORE", "line_1": "Weilstrasse 227", "line_2": null, "line_3": null, "city": "Esslingen am Neckar", "postcode": "73733", "country": "Germany", "coordinates": {"lat": 48.7416658, "lng": 9.2692504}}, {"farm_name": "DUS_Wittener Str. 142 (Gevelsberg)", "organization": "DUS [Edeka]", "category": "STORE", "line_1": "Wittener Str. 142", "line_2": null, "line_3": null, "city": "Gevelsberg", "postcode": "58285", "country": "Germany", "coordinates": {"lat": 51.3303306, "lng": 7.3348919}}, {"farm_name": "HAM_Bahnhofstra\u00dfe 47 (Buxtehude)", "organization": "HAM [Edeka]", "category": "STORE", "line_1": "Bahnhofstra\u00dfe 47", "line_2": null, "line_3": null, "city": "Buxtehude", "postcode": "21614", "country": "Germany", "coordinates": {"lat": 53.4709388, "lng": 9.690902}}, {"farm_name": "HAM_Peiner Hag 1 (Prisdorf)", "organization": "HAM [Edeka]", "category": "STORE", "line_1": "Peiner Hag 1", "line_2": null, "line_3": null, "city": "Prisdorf", "postcode": "25497", "country": "Germany", "coordinates": {"lat": 53.67127355, "lng": 9.77373474673894}}, {"farm_name": "FRA_Limburger Str. 48 (Koenigstein im Taunus) ", "organization": "FRA [Edeka]", "category": "STORE", "line_1": "Limburger Str. 48", "line_2": null, "line_3": null, "city": "Koenigstein im Taunus", "postcode": "61462", "country": "Germany", "coordinates": {"lat": 50.192654, "lng": 8.46456135291692}}, {"farm_name": "HAN_Germaniastrasse 26 (Lehrte)", "organization": "HAN [Edeka]", "category": "STORE", "line_1": "Germaniastrasse 26", "line_2": null, "line_3": null, "city": "Lehrte", "postcode": "31275", "country": "Germany", "coordinates": {"lat": 52.3758267, "lng": 9.9784005}}, {"farm_name": "X_19.01.08_HAN_Weserstra\u00dfe//OPS(TBC) ", "organization": "HAN [Edeka]", "category": "STORE", "line_1": "Weserstra\u00dfe 2", "line_2": "Burgdorf", "line_3": null, "city": "Hanover", "postcode": "31303 ", "country": "Germany", "coordinates": {"lat": 52.3341339, "lng": 9.7675793}}, {"farm_name": "X_19.01.31_FRA_ Am Giener_OPS//TBC", "organization": "FRA [Edeka]", "category": "STORE", "line_1": " Am Giener 23", "line_2": null, "line_3": null, "city": "Nieder-Olm", "postcode": "55268", "country": "Germany", "coordinates": {"lat": 49.9134143, "lng": 8.17905685754126}}, {"farm_name": "DUS_Hochdahler Markt 17 (Erkrath)", "organization": "DUS [Edeka]", "category": "STORE", "line_1": "Hochdahler Markt 17", "line_2": null, "line_3": null, "city": "Erkrath", "postcode": "40699", "country": "Germany"}, {"farm_name": "DUS_Ziegelhorststra\u00dfe 54 (Duisburg)", "organization": "DUS [Edeka]", "category": "STORE", "line_1": "Ziegelhorststra\u00dfe 54", "line_2": null, "line_3": null, "city": "Duisburg", "postcode": "47169", "country": "Germany", "coordinates": {"lat": 51.51134215, "lng": 6.77476719322157}}, {"farm_name": "FRA_Weberstra\u00dfe 15 (Mainz)", "organization": "FRA [Edeka]", "category": "STORE", "line_1": "Weberstra&#223;e 15", "line_2": null, "line_3": null, "city": "Mainz", "postcode": "55130", "country": "Germany"}, {"farm_name": "HAM_Quickbornerstra\u00dfe 52 (Norderstedt)", "organization": "HAM [Edeka]", "category": "STORE", "line_1": "Quickbornerstrasse 52", "line_2": null, "line_3": null, "city": "Norderstedt", "postcode": "22844", "country": "Germany", "coordinates": {"lat": 53.73489425, "lng": 9.98901647464796}}, {"farm_name": "HAM_\u00dcberseeboulevard 4-10 (Hamburg)", "organization": "HAM [Edeka]", "category": "STORE", "line_1": "\u00dcberseeboulevard 4-10", "line_2": null, "line_3": null, "city": "Hamburg", "postcode": "20457", "country": "Germany", "coordinates": {"lat": 53.5418655, "lng": 9.9977126}}, {"farm_name": "MUN_ Bahnhofsplatz 3 (Neubiberg)", "organization": "MUN [Edeka]", "category": "STORE", "line_1": " Bahnhofsplatz 3", "line_2": null, "line_3": null, "city": "Neubiberg", "postcode": "85579", "country": "Germany", "coordinates": {"lat": 48.0755593, "lng": 11.6610934}}, {"farm_name": "STU_Stuttgarter Str. 1 (Kirchheim unter Teck)", "organization": "STU [Edeka]", "category": "STORE", "line_1": "Stuttgarter Strasse 1", "line_2": null, "line_3": null, "city": "Kirchheim unter Teck", "postcode": "73230", "country": "Germany", "coordinates": {"lat": 48.648911, "lng": 9.4455687}}, {"farm_name": "STU_Sophienstra\u00dfe 21 (Stuttgart)", "organization": "STU [Edeka]", "category": "STORE", "line_1": "Sophienstrasse 21", "line_2": null, "line_3": null, "city": "Stuttgart", "postcode": "70178", "country": "Germany", "coordinates": {"lat": 48.7717408, "lng": 9.1729896}}, {"farm_name": "X_19.01.24_STU_Am Heilbrunnen 88//OPS(TBC)", "organization": "STU [Edeka]", "category": "STORE", "line_1": " Am Heilbrunnen 88", "line_2": null, "line_3": null, "city": "Reutlingen", "postcode": "72766", "country": "Germany"}, {"farm_name": "X_19.01.24_STU_Eugenstra\u00dfe 3(Tubingen)//OPS(TBC) ", "organization": "STU [Edeka]", "category": "STORE", "line_1": " Eugenstra\u00dfe 3", "line_2": null, "line_3": null, "city": "T\u00fcbingen", "postcode": "72072 ", "country": "Germany", "coordinates": {"lat": 48.704027, "lng": 9.1440599}}]}